"Year","Country","Total.employment.in.agriculture..thousands.","Male employment in agriculture (thousands)","Female employment in agriculture (thousands)","Total.employment.in.industry..thousands.","Male employment in industry (thousands)","Female employment in industry (thousands)","Total.employment.in.services..thousands.","Male employment in services (thousands)","Female employment in services (thousands)","Wage and salaried workers","Employers","Own-account workers","Contributing family workers","Vulnerable employment","Wage and salaried workers(2)","Employers(2)","Own-account workers(2)","Contributing family workers(2)","Vulnerable employment(2)","Wage and salaried workers(3)","Employers(3)","Own-account workers(3)","Contributing family workers(3)","Vulnerable employment(3)","country","latitude","longitude","name","Location","Location(2)","Country Name","Population","Location_1","Income.Class"
"2012","Sweden","98","75","23","918","746","172","3653","1631","2023","4179","175","302","12","314","2095","138","214","5","219","2084","38","89","7","96","SE","60.128161","18.643501","Sweden","POINT(60.128161 18.643501)","POINT(60.128161 18.643501)","Sweden","9519374","POINT(60.128161 18.643501)","High Income"
"2012","United Kingdom","362","262","100","5667","4619","1048","23543","11037","12506","25213","754","3485","119","3605","12890","561","2416","50","2466","12323","193","1069","70","1139","GB","55.378051","-3.435973","United Kingdom","POINT(55.378051 -3.435973)","POINT(55.378051 -3.435973)","United Kingdom","63700300","POINT(55.378051 -3.435973)","High Income"
"2012","Benin","1800","1215","585","338","194","144","1995","785","1211","440","55","3027","611","3638","356","43","1515","280","1796","84","12","1511","331","1842","BJ","9.30769","2.315834","Benin","POINT(9.30769 2.315834)","POINT(9.30769 2.315834)","Benin","10049792","POINT(9.30769 2.315834)","Low Income"
"2012","Saudi Arabia","463","460","3","2445","2427","18","6895","5751","1144","9068","192","515","27","542","7930","189","496","23","519","1138","3","19","3","23","SA","23.885942","45.079162","Saudi Arabia","POINT(23.885942 45.079162)","POINT(23.885942 45.079162)","Saudi Arabia","29496047","POINT(23.885942 45.079162)","High Income"
"2012","South-East Asia and the Pacific","118530","66686","51844","59904","39116","20788","124291","67825","56465","113820","8133","122345","58426","180771","69086","6272","77933","20338","98270","44735","1861","44413","38088","82501","","","","South-East Asia and the Pacific","","","South-East Asia and the Pacific","","",""
"2012","Japan","2365","1503","862","16800","12816","3984","43130","21577","21553","54796","1565","4183","1751","5934","31177","1321","3036","362","3398","23619","244","1147","1389","2536","JP","36.204824","138.252924","Japan","POINT(36.204824 138.252924)","POINT(36.204824 138.252924)","Japan","127561489","POINT(36.204824 138.252924)","High Income"
"2012","Brunei Darussalam","2","2","0","40","30","10","147","80","67","178","1","9","1","10","105","1","6","0","6","73","0","3","1","4","","","","Brunei Darussalam","","","Brunei Darussalam","405512","","High Income"
"2012","Cambodia","4295","2073","2222","1562","799","762","2559","1333","1225","3008","1","4645","762","5407","1732","0","2102","370","2473","1276","0","2542","392","2934","KH","12.565679","104.990963","Cambodia","POINT(12.565679 104.990963)","POINT(12.565679 104.990963)","Cambodia","14832255","POINT(12.565679 104.990963)",""
"2012","United Arab Emirates","205","204","1","1329","1281","47","4465","3635","831","5760","185","53","2","54","4893","177","50","1","50","867","7","3","1","4","AE","23.424076","53.847818","United Arab Emirates","POINT(23.424076 53.847818)","POINT(23.424076 53.847818)","United Arab Emirates","8952542","POINT(23.424076 53.847818)","High Income"
"2012","Indonesia","37229","23021","14207","24243","16485","7758","49683","29911","19772","38332","3207","51653","17963","69616","24585","2622","37051","5159","42210","13746","585","14602","12804","27406","ID","-0.789275","113.921327","Indonesia","POINT(-0.789275 113.921327)","POINT(-0.789275 113.921327)","Indonesia","248037853","POINT(-0.789275 113.921327)","Lower Middle Income"
"2012","Laos","2445","1141","1304","205","123","83","626","367","259","457","7","1535","1277","2812","320","5","979","328","1306","137","3","557","949","1506","LA","19.85627","102.495496","Laos","POINT(19.85627 102.495496)","POINT(19.85627 102.495496)","Laos","","POINT(19.85627 102.495496)",""
"2012","New Zealand","136","96","40","435","344","91","1675","753","922","1864","112","249","21","270","939","80","165","8","173","924","32","84","13","96","NZ","-40.900557","174.885971","New Zealand","POINT(-40.900557 174.885971)","POINT(-40.900557 174.885971)","New Zealand","4408100","POINT(-40.900557 174.885971)","High Income"
"2012","Malaysia","1536","1146","391","3473","2508","965","7328","3933","3395","9250","452","2032","602","2635","5590","380","1419","198","1617","3660","72","614","405","1018","MY","4.210484","101.975766","Malaysia","POINT(4.210484 101.975766)","POINT(4.210484 101.975766)","Malaysia","29021940","POINT(4.210484 101.975766)","Upper Middle Income"
"2012","Botswana","292","174","119","100","69","31","445","220","225","503","37","276","21","297","282","26","146","9","154","222","11","130","12","142","BW","-22.328474","24.684866","Botswana","POINT(-22.328474 24.684866)","POINT(-22.328474 24.684866)","Botswana","2132822","POINT(-22.328474 24.684866)","Upper Middle Income"
"2012","Myanmar","17486","7658","9828","4234","2640","1594","8219","4768","3451","3185","86","12692","13976","26668","1924","74","7935","5133","13067","1261","12","4757","8843","13600","","","","Myanmar","","","Myanmar","52543841","","Low Income"
"2012","United States","2389","1823","566","26390","20761","5629","118572","56425","62147","133518","4351","9334","148","9482","69917","3385","5629","78","5706","63601","966","3705","70","3776","US","37.09024","-95.712891","United States","POINT(37.09024 -95.712891)","POINT(37.09024 -95.712891)","United States","314102623","POINT(37.09024 -95.712891)","High Income"
"2012","Philippines","12357","9208","3148","5912","4168","1744","20140","9842","10298","20374","1702","11769","4563","16332","12396","1276","7502","2045","9547","7979","426","4266","2519","6785","PH","12.879721","121.774017","Philippines","POINT(12.879721 121.774017)","POINT(12.879721 121.774017)","Philippines","96017322","POINT(12.879721 121.774017)","Lower Middle Income"
"2012","Singapore","26","21","5","586","379","207","2318","1238","1080","2479","177","254","20","274","1326","129","175","7","182","1153","48","79","13","92","SG","1.352083","103.819836","Singapore","POINT(1.352083 103.819836)","POINT(1.352083 103.819836)","Singapore","5312437","POINT(1.352083 103.819836)","High Income"
"2012","WORLD","990916","578019","412898","714704","504376","210328","1396938","794058","602880","1541998","71456","1087446","401658","1489104","934901","57103","738952","145497","884449","607096","14354","348494","256161","604655","","","","WORLD","","","WORLD","","",""
"2012","Thailand","15516","8731","6785","8182","4896","3286","15428","7567","7861","17123","1038","12362","8604","20966","9470","766","7708","3250","10958","7653","271","4654","5354","10008","TH","15.870032","100.992541","Thailand","POINT(15.870032 100.992541)","POINT(15.870032 100.992541)","Thailand","67164130","POINT(15.870032 100.992541)","Upper Middle Income"
"2012","East Timor","105","72","32","22","17","5","92","60","31","66","4","90","59","149","51","2","58","38","96","15","1","32","21","53","","","","East Timor","","","East Timor","","",""
"2012","Tajikistan","1709","685","1024","569","503","66","823","544","279","1675","8","1408","10","1418","817","7","901","7","908","858","1","507","3","510","TJ","38.861034","71.276093","Tajikistan","POINT(38.861034 71.276093)","POINT(38.861034 71.276093)","Tajikistan","7930929","POINT(38.861034 71.276093)","Low Income"
"2012","Austria","209","121","88","1106","858","248","2904","1288","1616","3656","201","280","82","362","1915","152","159","41","200","1741","49","121","41","162","AT","47.516231","14.550072","Austria","POINT(47.516231 14.550072)","POINT(47.516231 14.550072)","Austria","8429991","POINT(47.516231 14.550072)","High Income"
"2012","Vietnam","25141","12452","12689","11224","6915","4309","16728","8086","8641","18441","1431","24013","9208","33221","10991","992","12172","3299","15471","7450","439","11841","5909","17750","VN","14.058324","108.277199","Vietnam","POINT(14.058324 108.277199)","POINT(14.058324 108.277199)","Vietnam","88809200","POINT(14.058324 108.277199)","Lower Middle Income"
"2012","Burkina Faso","6035","2981","3054","189","122","67","997","659","338","647","61","3268","3245","6513","480","43","2392","847","3239","167","18","876","2398","3274","BF","12.238333","-1.561593","Burkina Faso","POINT(12.238333 -1.561593)","POINT(12.238333 -1.561593)","Burkina Faso","16590813","POINT(12.238333 -1.561593)","Low Income"
"2012","Fiji","98","73","24","53","38","15","162","101","61","180","4","79","50","129","124","3","62","23","85","56","1","17","27","44","FJ","-16.578193","179.414413","Fiji","POINT(-16.578193 179.414413)","POINT(-16.578193 179.414413)","Fiji","874158","POINT(-16.578193 179.414413)",""
"2012","Central and South-Eastern Europe (non-EU) and CIS","33126","18938","14188","39492","25667","13825","92058","45887","46171","129633","3302","25414","6328","31742","70550","2554","15441","1947","17388","59082","747","9973","4381","14354","","","","Central and South-Eastern Europe (non-EU) and CIS","","","Central and South-Eastern Europe (non-EU) and CIS","","",""
"2012","Russia","9796","6456","3340","18407","9716","8691","44443","20646","23797","67908","1026","3624","88","3712","34262","650","1862","44","1906","33646","376","1762","44","1806","RU","61.52401","105.318756","Russia","POINT(61.52401 105.318756)","POINT(61.52401 105.318756)","Russia","143201676","POINT(61.52401 105.318756)","High Income"
"2012","Papua New Guinea","2190","1025","1165","141","99","42","785","495","290","698","22","1135","1261","2396","438","19","709","453","1162","260","3","426","808","1234","PG","-6.314993","143.95555","Papua New Guinea","POINT(-6.314993 143.95555)","POINT(-6.314993 143.95555)","Papua New Guinea","7154870","POINT(-6.314993 143.95555)","Lower Middle Income"
"2012","Solomon Islands","104","62","42","28","20","7","77","43","34","49","2","77","81","158","33","2","55","36","90","16","0","22","45","67","SB","-9.64571","160.156194","Solomon Islands","POINT(-9.64571 160.156194)","POINT(-9.64571 160.156194)","Solomon Islands","549162","POINT(-9.64571 160.156194)",""
"2012","South Asia","300228","192331","107897","137152","110075","27077","181265","153659","27606","139443","6721","368055","104426","472481","109568","5891","294610","45995","340605","29875","830","73445","58431","131876","","","","South Asia","","","South Asia","1675020307","",""
"2012","Afghanistan","3623","2893","730","946","812","134","2292","2092","199","1776","78","3108","1899","5007","1546","74","2836","1342","4178","230","4","273","557","830","AF","33.93911","67.709953","Afghanistan","POINT(33.93911 67.709953)","POINT(33.93911 67.709953)","Afghanistan","29726803","POINT(33.93911 67.709953)",""
"2012","Bangladesh","39503","15013","24490","9915","8283","1631","23209","20429","2780","11743","150","41383","19351","60734","7596","118","32716","3295","36011","4147","32","8666","16056","24722","BD","23.684994","90.356331","Bangladesh","POINT(23.684994 90.356331)","POINT(23.684994 90.356331)","Bangladesh","155257387","POINT(23.684994 90.356331)","Low Income"
"2012","Bhutan","223","107","116","34","22","11","118","90","27","113","74","176","12","188","90","46","76","7","83","22","28","100","5","105","BT","27.514162","90.433601","Bhutan","POINT(27.514162 90.433601)","POINT(27.514162 90.433601)","Bhutan","743711","POINT(27.514162 90.433601)",""
"2012","Yemen","2494","1533","962","789","775","14","2357","2260","97","3260","233","1593","554","2147","2819","218","1288","243","1531","441","15","305","311","616","YE","15.552727","48.516388","Yemen","POINT(15.552727 48.516388)","POINT(15.552727 48.516388)","Yemen","24882792","POINT(15.552727 48.516388)","Lower Middle Income"
"2012","China","250689","129343","121346","233777","142834","90943","283118","157604","125514","391088","8582","255566","112349","367914","233596","7016","156941","32228","189169","157492","1566","98625","80121","178745","CN","35.86166","104.195397","China","POINT(35.86166 104.195397)","POINT(35.86166 104.195397)","China","1350695000","POINT(35.86166 104.195397)","Upper Middle Income"
"2012","India","214041","148538","65503","112632","89947","22685","128667","107231","21437","94828","5032","291250","64231","355481","75028","4587","234263","31838","266101","19799","445","56987","32393","89380","IN","20.593684","78.96288","India","POINT(20.593684 78.96288)","POINT(20.593684 78.96288)","India","1263589639","POINT(20.593684 78.96288)","Lower Middle Income"
"2012","Maldives","22","18","4","33","15","17","87","54","34","98","4","28","13","41","67","3","12","4","16","31","0","16","8","25","MV","3.202778","73.22068","Maldives","POINT(3.202778 73.22068)","POINT(3.202778 73.22068)","Maldives","385000","POINT(3.202778 73.22068)",""
"2012","Belgium","55","40","15","981","803","178","3468","1612","1855","3854","186","425","39","464","2022","143","280","10","290","1831","43","145","29","174","BE","50.503887","4.469936","Belgium","POINT(50.503887 4.469936)","POINT(50.503887 4.469936)","Belgium","11128246","POINT(50.503887 4.469936)","High Income"
"2012","Turkey","5818","3058","2760","6375","5269","1106","12391","8839","3553","15451","1215","4634","3284","7918","11424","1118","3832","792","4624","4027","97","802","2492","3294","TR","38.963745","35.243322","Turkey","POINT(38.963745 35.243322)","POINT(38.963745 35.243322)","Turkey","74849187","POINT(38.963745 35.243322)","Upper Middle Income"
"2012","Nepal","10236","4306","5930","1668","1189","479","2455","1541","914","3701","560","9028","1071","10099","2572","265","3879","320","4199","1128","295","5149","751","5900","NP","28.394857","84.124008","Nepal","POINT(28.394857 84.124008)","POINT(28.394857 84.124008)","Nepal","27500515","POINT(28.394857 84.124008)","Low Income"
"2012","Armenia","460","248","212","218","182","35","534","294","239","786","9","415","1","417","475","8","242","1","242","311","2","174","1","174","AM","40.069099","45.038189","Armenia","POINT(40.069099 45.038189)","POINT(40.069099 45.038189)","Armenia","2978339","POINT(40.069099 45.038189)","Lower Middle Income"
"2012","Pakistan","28747","18665","10081","10203","8836","1367","21652","20319","1333","22480","584","20418","17120","37538","19464","583","18796","8978","27774","3016","1","1622","8142","9764","PK","30.375321","69.345116","Pakistan","POINT(30.375321 69.345116)","POINT(30.375321 69.345116)","Pakistan","177392252","POINT(30.375321 69.345116)","Lower Middle Income"
"2012","Sri Lanka","3832","2791","1041","1723","970","753","2785","1903","882","4706","240","2664","729","3394","3205","216","2033","210","2243","1501","24","631","519","1151","LK","7.873054","80.771797","Sri Lanka","POINT(7.873054 80.771797)","POINT(7.873054 80.771797)","Sri Lanka","20425000","POINT(7.873054 80.771797)","Lower Middle Income"
"2012","Latin America and the Caribbean","42947","32696","10251","57724","44207","13517","172620","84609","88011","174384","12205","71843","14858","86701","101084","9174","44960","6294","51254","73300","3031","26883","8565","35447","","","","Latin America and the Caribbean","","","Latin America and the Caribbean","","",""
"2012","Argentina","111","88","23","4204","3542","662","13173","6934","6239","13436","706","3257","89","3346","7815","518","2197","33","2230","5620","188","1060","56","1116","AR","-38.416097","-63.616672","Argentina","POINT(-38.416097 -63.616672)","POINT(-38.416097 -63.616672)","Argentina","42095224","POINT(-38.416097 -63.616672)","Upper Middle Income"
"2012","Estonia","28","20","8","189","135","54","387","147","241","551","22","28","4","32","265","18","18","1","19","285","4","10","2","13","EE","58.595272","25.013607","Estonia","POINT(58.595272 25.013607)","POINT(58.595272 25.013607)","Estonia","1322696","POINT(58.595272 25.013607)","High Income"
"2012","Bahamas","8","6","2","22","18","4","155","72","83","156","3","26","1","26","76","2","18","0","18","80","1","8","0","8","BS","25.03428","-77.39628","Bahamas","POINT(25.03428 -77.39628)","POINT(25.03428 -77.39628)","Bahamas","372388","POINT(25.03428 -77.39628)",""
"2012","North Africa","18301","12959","5342","13079","11607","1472","29346","22796","6551","33287","5721","12969","8749","21719","27499","5470","10489","3903","14392","5787","251","2480","4847","7327","","","","North Africa","","","North Africa","","",""
"2012","Barbados","4","3","2","30","24","7","110","52","57","122","2","20","0","21","63","2","14","0","14","58","0","7","0","7","BB","13.193887","-59.543198","Barbados","POINT(13.193887 -59.543198)","POINT(13.193887 -59.543198)","Barbados","281580","POINT(13.193887 -59.543198)","High Income"
"2012","Belize","18","17","1","30","24","6","80","41","39","86","11","24","7","31","52","9","15","5","20","34","2","9","2","11","BZ","17.189877","-88.49765","Belize","POINT(17.189877 -88.49765)","POINT(17.189877 -88.49765)","Belize","336707","POINT(17.189877 -88.49765)",""
"2012","Ukraine","2997","1795","1201","4636","3200","1435","13744","5772","7972","17354","227","3719","77","3796","8817","141","1766","44","1810","8538","86","1952","33","1985","UA","48.379433","31.16558","Ukraine","POINT(48.379433 31.16558)","POINT(48.379433 31.16558)","Ukraine","45593300","POINT(48.379433 31.16558)","Lower Middle Income"
"2012","Bolivia","1361","732","629","1016","797","219","2383","1116","1267","1906","257","1598","998","2596","1222","201","892","330","1222","685","57","706","668","1374","BO","-16.290154","-63.588653","Bolivia","POINT(-16.290154 -63.588653)","POINT(-16.290154 -63.588653)","Bolivia","10238762","POINT(-16.290154 -63.588653)","Lower Middle Income"
"2012","Brazil","14033","9720","4313","21160","16508","4652","62291","29631","32660","68077","4433","20872","4103","24975","37337","3159","13718","1645","15363","30739","1274","7154","2458","9612","BR","-14.235004","-51.92528","Brazil","POINT(-14.235004 -51.92528)","POINT(-14.235004 -51.92528)","Brazil","202401584","POINT(-14.235004 -51.92528)","Upper Middle Income"
"2012","Bulgaria","190","130","60","919","570","349","1823","842","981","2591","105","212","25","237","1323","74","136","9","145","1267","31","77","15","92","BG","42.733883","25.48583","Bulgaria","POINT(42.733883 25.48583)","POINT(42.733883 25.48583)","Bulgaria","7305888","POINT(42.733883 25.48583)","Upper Middle Income"
"2012","Azerbaijan","1695","739","956","644","508","135","2162","1075","1087","1520","148","2436","397","2833","917","128","1157","121","1278","603","20","1279","276","1555","AZ","40.143105","47.576927","Azerbaijan","POINT(40.143105 47.576927)","POINT(40.143105 47.576927)","Azerbaijan","9295784","POINT(40.143105 47.576927)","Upper Middle Income"
"2012","Colombia","3532","2947","585","4330","2909","1421","12802","6354","6448","9595","1005","8920","1144","10064","5682","759","5304","465","5769","3913","246","3617","678","4295","CO","4.570868","-74.297333","Colombia","POINT(4.570868 -74.297333)","POINT(4.570868 -74.297333)","Colombia","46881018","POINT(4.570868 -74.297333)","Upper Middle Income"
"2012","Iraq","1330","836","493","1337","1301","37","4319","3741","578","4658","595","1321","413","1733","4138","578","891","270","1161","520","16","430","143","572","IQ","33.223191","43.679291","Iraq","POINT(33.223191 43.679291)","POINT(33.223191 43.679291)","Iraq","32957622","POINT(33.223191 43.679291)","Upper Middle Income"
"2012","Costa Rica","293","264","30","420","335","85","1407","771","635","1610","80","400","30","431","1012","65","277","17","293","598","15","124","14","137","CR","9.748917","-83.753428","Costa Rica","POINT(9.748917 -83.753428)","POINT(9.748917 -83.753428)","Costa Rica","4654148","POINT(9.748917 -83.753428)","Upper Middle Income"
"2012","Cuba","1081","901","181","891","646","245","3189","1656","1533","3869","205","931","156","1087","2222","168","757","55","812","1647","37","174","100","275","CU","21.521757","-77.781167","Cuba","POINT(21.521757 -77.781167)","POINT(21.521757 -77.781167)","Cuba","11342631","POINT(21.521757 -77.781167)","Upper Middle Income"
"2012","Chile","788","627","161","1899","1559","340","5225","2570","2655","5695","225","1885","108","1992","3445","155","1118","37","1155","2250","70","766","71","837","CL","-35.675147","-71.542969","Chile","POINT(-35.675147 -71.542969)","POINT(-35.675147 -71.542969)","Chile","17388437","POINT(-35.675147 -71.542969)","High Income"
"2012","Algeria","1105","1064","41","3164","2802","362","6721","5398","1323","5320","831","4197","642","4838","4564","800","3434","466","3901","757","31","762","175","937","DZ","28.033886","1.659626","Algeria","POINT(28.033886 1.659626)","POINT(28.033886 1.659626)","Algeria","37439427","POINT(28.033886 1.659626)","Upper Middle Income"
"2012","Dominican Republic","558","519","39","645","523","122","2745","1472","1274","2061","192","1628","68","1696","1098","152","1231","33","1264","962","40","397","35","433","DO","18.735693","-70.162651","Dominican Republic","POINT(18.735693 -70.162651)","POINT(18.735693 -70.162651)","Dominican Republic","10155036","POINT(18.735693 -70.162651)","Upper Middle Income"
"2012","Serbia","667","419","248","842","619","223","1664","824","840","2207","127","601","238","839","1238","93","453","78","531","969","34","148","160","308","RS","44.016521","21.005859","Serbia","POINT(44.016521 21.005859)","POINT(44.016521 21.005859)","Serbia","7199077","POINT(44.016521 21.005859)","Upper Middle Income"
"2012","Ecuador","1970","1376","594","1261","947","314","3852","1963","1889","3197","264","2985","637","3622","1628","202","2113","343","2456","1569","62","873","294","1167","EC","-1.831239","-78.183406","Ecuador","POINT(-1.831239 -78.183406)","POINT(-1.831239 -78.183406)","Ecuador","15419493","POINT(-1.831239 -78.183406)","Upper Middle Income"
"2012","El Salvador","529","475","54","536","337","198","1478","654","824","1478","107","760","198","958","922","73","359","112","471","556","34","401","86","487","SV","13.794185","-88.89653","El Salvador","POINT(13.794185 -88.89653)","POINT(13.794185 -88.89653)","El Salvador","6072233","POINT(13.794185 -88.89653)","Lower Middle Income"
"2012","Guadeloupe","6","5","1","24","18","6","119","53","66","108","5","33","3","37","53","4","19","1","20","55","1","14","2","17","GP","16.995971","-62.067641","Guadeloupe","POINT(16.995971 -62.067641)","POINT(16.995971 -62.067641)","Guadeloupe","","POINT(16.995971 -62.067641)",""
"2012","Guatemala","1875","1595","280","1140","797","343","2848","1262","1587","2607","289","1882","1086","2969","1782","228","1073","572","1645","825","61","810","514","1324","GT","15.783471","-90.230759","Guatemala","POINT(15.783471 -90.230759)","POINT(15.783471 -90.230759)","Guatemala","15368759","POINT(15.783471 -90.230759)","Lower Middle Income"
"2012","Burundi","3815","1773","2042","84","72","12","247","184","63","333","35","3625","153","3778","263","22","1715","29","1743","70","13","1911","124","2035","BI","-3.373056","29.918886","Burundi","POINT(-3.373056 29.918886)","POINT(-3.373056 29.918886)","Burundi","10124572","POINT(-3.373056 29.918886)","Low Income"
"2012","Guyana","77","61","15","63","43","19","134","77","57","125","12","105","31","136","88","11","60","23","83","37","2","45","8","53","GY","4.860416","-58.93018","Guyana","POINT(4.860416 -58.93018)","POINT(4.860416 -58.93018)","Guyana","758410","POINT(4.860416 -58.93018)","Lower Middle Income"
"2012","Georgia","948","454","493","248","219","29","778","360","418","775","25","716","457","1173","408","20","457","147","605","367","5","259","309","568","GE","42.315407","43.356892","Georgia","POINT(42.315407 43.356892)","POINT(42.315407 43.356892)","Georgia","3825000","POINT(42.315407 43.356892)","Lower Middle Income"
"2012","Croatia","217","119","99","435","312","122","931","428","502","1247","74","218","45","262","665","51","132","11","144","581","23","85","33","119","HR","45.1","15.2","Croatia","POINT(45.1 15.2)","POINT(45.1 15.2)","Croatia","4267558","POINT(45.1 15.2)","High Income"
"2012","Haiti","1770","1178","592","475","386","90","1765","561","1204","2149","182","1152","527","1679","1112","143","641","228","869","1037","39","511","299","810","HT","18.971187","-72.285215","Haiti","POINT(18.971187 -72.285215)","POINT(18.971187 -72.285215)","Haiti","10288828","POINT(18.971187 -72.285215)","Low Income"
"2012","Honduras","1034","957","76","612","409","203","1403","653","750","1440","64","1268","276","1543","983","47","789","200","988","457","17","479","76","555","HN","15.199999","-86.241905","Honduras","POINT(15.199999 -86.241905)","POINT(15.199999 -86.241905)","Honduras","7736131","POINT(15.199999 -86.241905)","Lower Middle Income"
"2012","Spain","776","575","200","3675","2962","714","13178","6175","7003","14524","931","2042","131","2173","7632","661","1360","59","1419","6893","270","682","72","754","ES","40.463667","-3.74922","Spain","POINT(40.463667 -3.74922)","POINT(40.463667 -3.74922)","Spain","46773055","POINT(40.463667 -3.74922)","High Income"
"2012","Israel","55","44","11","623","488","134","2606","1218","1388","2892","151","235","5","240","1467","124","157","2","159","1425","27","78","3","81","IL","31.046051","34.851612","Israel","POINT(31.046051 34.851612)","POINT(31.046051 34.851612)","Israel","7910500","POINT(31.046051 34.851612)","High Income"
"2012","Jamaica","198","160","38","169","138","31","726","321","405","648","35","399","11","410","330","24","261","4","265","318","11","138","7","145","JM","18.109581","-77.297508","Jamaica","POINT(18.109581 -77.297508)","POINT(18.109581 -77.297508)","Jamaica","2762965","POINT(18.109581 -77.297508)","Upper Middle Income"
"2012","Martinique","6","4","2","19","16","3","111","46","64","98","5","30","3","33","46","3","17","1","17","52","1","14","2","16","MQ","14.641528","-61.024174","Martinique","POINT(14.641528 -61.024174)","POINT(14.641528 -61.024174)","Martinique","","POINT(14.641528 -61.024174)",""
"2012","Mexico","6777","6133","644","11437","8636","2801","32008","16102","15905","33544","2403","11413","2861","14274","20756","1932","6965","1218","8184","12789","471","4447","1643","6090","MX","23.634501","-102.552784","Mexico","POINT(23.634501 -102.552784)","POINT(23.634501 -102.552784)","Mexico","122070963","POINT(23.634501 -102.552784)","Upper Middle Income"
"2012","Cameroon","5384","2885","2498","705","470","235","2247","1192","1055","1756","286","3936","2357","6293","1316","222","2027","983","3010","440","64","1909","1374","3283","CM","7.369722","12.354722","Cameroon","POINT(7.369722 12.354722)","POINT(7.369722 12.354722)","Cameroon","21659488","POINT(7.369722 12.354722)","Lower Middle Income"
"2012","Nicaragua","593","553","40","400","255","146","1331","635","697","1216","92","794","222","1017","745","74","460","163","623","471","18","334","60","393","NI","12.865416","-85.207229","Nicaragua","POINT(12.865416 -85.207229)","POINT(12.865416 -85.207229)","Nicaragua","5877034","POINT(12.865416 -85.207229)","Lower Middle Income"
"2012","Panama","290","236","53","316","261","55","1100","581","519","1160","48","418","81","499","712","37","294","36","330","448","11","124","45","169","PA","8.537981","-80.782127","Panama","POINT(8.537981 -80.782127)","POINT(8.537981 -80.782127)","Panama","3743761","POINT(8.537981 -80.782127)","Upper Middle Income"
"2012","Paraguay","820","552","268","493","398","95","1686","884","803","1536","167","1034","262","1296","976","127","569","162","731","560","40","465","100","565","PY","-23.442503","-58.443832","Paraguay","POINT(-23.442503 -58.443832)","POINT(-23.442503 -58.443832)","Paraguay","6379162","POINT(-23.442503 -58.443832)","Lower Middle Income"
"2012","Peru","4005","2483","1522","2651","1940","711","8934","4196","4737","7507","839","5422","1822","7244","4468","629","2962","560","3522","3039","210","2460","1262","3722","PE","-9.189967","-75.015152","Peru","POINT(-9.189967 -75.015152)","POINT(-9.189967 -75.015152)","Peru","30158768","POINT(-9.189967 -75.015152)","Upper Middle Income"
"2012","Kazakhstan","2116","1127","989","1610","1134","476","4569","1984","2585","5684","181","2392","38","2430","2906","124","1193","22","1215","2778","57","1198","17","1215","KZ","48.019573","66.923684","Kazakhstan","POINT(48.019573 66.923684)","POINT(48.019573 66.923684)","Kazakhstan","16791425","POINT(48.019573 66.923684)","Upper Middle Income"
"2012","Puerto Rico","18","16","1","150","112","38","905","474","431","874","39","160","0","160","448","32","124","0","124","426","8","36","0","36","PR","18.220833","-66.590149","Puerto Rico","POINT(18.220833 -66.590149)","POINT(18.220833 -66.590149)","Puerto Rico","3634487","POINT(18.220833 -66.590149)",""
"2012","Czech Republic","153","111","41","1899","1399","500","2925","1323","1602","4059","169","718","30","748","2204","131","490","9","499","1855","39","227","22","249","CZ","49.817492","15.472962","Czech Republic","POINT(49.817492 15.472962)","POINT(49.817492 15.472962)","Czech Republic","10510785","POINT(49.817492 15.472962)",""
"2012","Montenegro","11","7","4","37","29","7","154","78","77","163","5","31","4","35","87","4","22","2","24","76","2","9","2","11","ME","42.708678","19.37439","Montenegro","POINT(42.708678 19.37439)","POINT(42.708678 19.37439)","Montenegro","620601","POINT(42.708678 19.37439)","Upper Middle Income"
"2012","Egypt","7145","5108","2036","5214","5003","211","11369","8960","2408","14741","3600","2905","2482","5387","12290","3453","2165","1165","3330","2451","147","740","1317","2057","EG","26.820553","30.802498","Egypt","POINT(26.820553 30.802498)","POINT(26.820553 30.802498)","Egypt","85660902","POINT(26.820553 30.802498)","Lower Middle Income"
"2012","Suriname","16","13","3","60","47","13","108","60","47","150","5","27","1","28","95","5","20","1","21","55","1","7","0","7","SR","3.919305","-56.027783","Suriname","POINT(3.919305 -56.027783)","POINT(3.919305 -56.027783)","Suriname","528535","POINT(3.919305 -56.027783)",""
"2012","Cape Verde","94","64","30","16","14","3","102","54","48","113","8","72","19","91","76","6","42","7","49","37","2","30","12","42","CV","16.002082","-24.013197","Cape Verde","POINT(16.002082 -24.013197)","POINT(16.002082 -24.013197)","Cape Verde","","POINT(16.002082 -24.013197)","Lower Middle Income"
"2012","Trinidad and Tobago","26","21","5","219","173","46","394","179","215","514","27","94","5","99","290","17","65","1","66","223","10","29","4","33","TT","10.691803","-61.222503","Trinidad and Tobago","POINT(10.691803 -61.222503)","POINT(10.691803 -61.222503)","Trinidad and Tobago","1341579","POINT(10.691803 -61.222503)","High Income"
"2012","Uruguay","163","131","32","340","254","86","1121","532","589","1156","74","377","16","393","634","48","232","4","235","522","26","145","13","158","UY","-32.522779","-55.765835","Uruguay","POINT(-32.522779 -55.765835)","POINT(-32.522779 -55.765835)","Uruguay","3396753","POINT(-32.522779 -55.765835)","High Income"
"2012","Venezuela","988","922","66","2711","2155","556","9037","4706","4330","8265","431","3927","112","4039","4988","351","2397","47","2445","3277","80","1530","65","1595","VE","6.42375","-66.58973","Venezuela","POINT(6.42375 -66.58973)","POINT(6.42375 -66.58973)","Venezuela","29854238","POINT(6.42375 -66.58973)","Upper Middle Income"
"2012","Middle East","9862","7156","2705","17988","16757","1231","38294","31808","6486","46482","2884","13495","3282","16778","39626","2784","11716","1595","13311","6856","100","1780","1687","3467","","","","Middle East","","","Middle East","","",""
"2012","Bahrain","8","8","0","280","264","15","399","296","103","661","13","10","4","14","544","12","10","3","12","116","1","0","1","1","BH","25.930414","50.637772","Bahrain","POINT(25.930414 50.637772)","POINT(25.930414 50.637772)","Bahrain","1333577","POINT(25.930414 50.637772)","High Income"
"2012","West Bank and Gaza Strip","92","57","35","205","192","13","492","393","99","528","50","140","72","212","435","48","125","35","160","93","2","16","36","52","","","","West Bank and Gaza Strip","","","West Bank and Gaza Strip","","",""
"2012","Iran","4237","3209","1028","7411","6482","928","11046","9196","1850","12200","1123","7427","1943","9371","10406","1088","6552","842","7394","1794","35","875","1101","1977","IR","32.427908","53.688046","Iran","POINT(32.427908 53.688046)","POINT(32.427908 53.688046)","Iran","76156975","POINT(32.427908 53.688046)","Upper Middle Income"
"2012","Libya","176","146","30","449","411","38","1476","994","482","1778","51","228","44","272","1338","40","150","22","172","440","11","78","22","100","LY","26.3351","17.228331","Libya","POINT(26.3351 17.228331)","POINT(26.3351 17.228331)","Libya","6283403","POINT(26.3351 17.228331)","Upper Middle Income"
"2012","Central African Republic","1411","763","647","81","60","21","463","211","251","107","11","965","871","1836","73","8","502","451","953","34","3","462","421","883","CF","6.611111","20.939444","Central African Republic","POINT(6.611111 20.939444)","POINT(6.611111 20.939444)","Central African Republic","4619500","POINT(6.611111 20.939444)","Low Income"
"2012","East Asia","254833","131827","123006","254422","155433","98989","313352","173236","140116","429163","10802","266605","116037","382642","254324","8773","164392","33008","197400","174840","2029","102212","83030","185242","","","","East Asia","","","East Asia","","",""
"2012","Comoros","144","97","47","21","17","4","55","39","16","29","2","121","67","188","23","2","86","43","129","7","0","35","24","60","KM","-11.875001","43.872219","Comoros","POINT(-11.875001 43.872219)","POINT(-11.875001 43.872219)","Comoros","733661","POINT(-11.875001 43.872219)","Low Income"
"2012","Cyprus","16","11","4","111","91","20","397","193","204","434","22","58","9","67","231","19","41","4","45","203","3","16","5","22","CY","35.126413","33.429859","Cyprus","POINT(35.126413 33.429859)","POINT(35.126413 33.429859)","Cyprus","1129303","POINT(35.126413 33.429859)","High Income"
"2012","Congo (Brazzaville)","549","258","291","333","170","163","745","411","334","380","20","1163","64","1227","310","16","484","28","512","70","4","679","36","715","","","","Congo (Brazzaville)","","","Congo (Brazzaville)","4286188","","Lower Middle Income"
"2012","Congo (Kinshasa)","19259","9901","9358","597","440","157","3992","1676","2316","5925","172","11516","6234","17750","4552","107","5523","1834","7357","1373","65","5993","4400","10393","","","","Congo (Kinshasa)","","","Congo (Kinshasa)","70291160","","Low Income"
"2012","Hong Kong","22","13","9","420","353","67","3166","1537","1629","3233","121","237","16","252","1626","97","177","2","179","1607","24","60","14","74","HK","22.396428","114.109497","Hong Kong","POINT(22.396428 114.109497)","POINT(22.396428 114.109497)","Hong Kong","7154600","POINT(22.396428 114.109497)","High Income"
"2012","Cte dIvoire","4383","2880","1503","462","381","81","2653","1400","1254","1442","36","3736","2284","6020","1123","26","2617","895","3511","318","10","1119","1390","2509","","","","Cte dIvoire","","","Cte dIvoire","","",""
"2012","Eritrea","2104","1059","1045","151","104","47","441","240","201","1021","40","1313","322","1636","597","30","695","81","776","424","10","618","241","859","ER","15.179384","39.782334","Eritrea","POINT(15.179384 39.782334)","POINT(15.179384 39.782334)","Eritrea","","POINT(15.179384 39.782334)","Low Income"
"2012","Jordan","35","33","3","292","271","21","1346","1096","250","1407","104","155","7","162","1144","100","150","6","156","263","4","6","1","6","JO","30.585164","36.238414","Jordan","POINT(30.585164 36.238414)","POINT(30.585164 36.238414)","Jordan","6994451","POINT(30.585164 36.238414)","Upper Middle Income"
"2012","Ethiopia","31064","17011","14053","3887","1830","2057","6248","3580","2668","4181","311","17677","19028","36706","2651","252","12454","7063","19517","1531","58","5223","11965","17188","ET","9.145","40.489673","Ethiopia","POINT(9.145 40.489673)","POINT(9.145 40.489673)","Ethiopia","92191211","POINT(9.145 40.489673)","Low Income"
"2012","Finland","106","77","28","575","465","110","1829","759","1070","2166","102","228","13","241","1066","79","148","8","156","1100","23","80","5","85","FI","61.92411","25.748151","Finland","POINT(61.92411 25.748151)","POINT(61.92411 25.748151)","Finland","5413971","POINT(61.92411 25.748151)","High Income"
"2012","Kyrgyzstan","746","423","323","516","365","150","1091","574","517","1269","37","632","414","1046","800","28","373","161","533","469","8","260","253","513","KG","41.20438","74.766098","Kyrgyzstan","POINT(41.20438 74.766098)","POINT(41.20438 74.766098)","Kyrgyzstan","","POINT(41.20438 74.766098)",""
"2012","Gabon","102","43","59","56","51","5","327","184","143","222","6","240","17","257","146","4","122","5","128","76","2","118","11","129","GA","-0.803689","11.609444","Gabon","POINT(-0.803689 11.609444)","POINT(-0.803689 11.609444)","Gabon","1613489","POINT(-0.803689 11.609444)","Upper Middle Income"
"2012","Gambia","440","211","229","25","24","2","220","125","95","276","12","324","74","398","155","9","175","20","195","121","3","149","54","203","GM","13.443182","-15.310139","Gambia","POINT(13.443182 -15.310139)","POINT(13.443182 -15.310139)","Gambia","1807108","POINT(13.443182 -15.310139)","Low Income"
"2012","Ghana","6128","3243","2885","1375","689","686","2818","1238","1580","2055","503","6550","1213","7763","1451","275","3015","429","3444","604","228","3535","784","4319","GH","7.946527","-1.023194","Ghana","POINT(7.946527 -1.023194)","POINT(7.946527 -1.023194)","Ghana","25544565","POINT(7.946527 -1.023194)","Lower Middle Income"
"2012","Equatorial Guinea","115","54","61","81","53","28","160","90","71","209","18","126","3","129","120","9","68","1","69","90","9","58","2","61","GQ","1.650801","10.267895","Equatorial Guinea","POINT(1.650801 10.267895)","POINT(1.650801 10.267895)","Equatorial Guinea","773729","POINT(1.650801 10.267895)",""
"2012","Uzbekistan","3968","2298","1670","2497","1866","631","4617","2542","2075","6722","163","3369","828","4197","3973","138","2225","369","2594","2749","25","1144","459","1603","UZ","41.377491","64.585262","Uzbekistan","POINT(41.377491 64.585262)","POINT(41.377491 64.585262)","Uzbekistan","29774500","POINT(41.377491 64.585262)","Lower Middle Income"
"2012","Syria","813","651","161","1845","1779","67","2995","2498","497","3510","260","1700","184","1883","2907","253","1643","126","1768","603","7","57","58","115","SY","34.802075","38.996815","Syria","POINT(34.802075 38.996815)","POINT(34.802075 38.996815)","Syria","19978756","POINT(34.802075 38.996815)","Lower Middle Income"
"2012","Guinea","3381","1799","1582","258","208","50","949","476","474","1192","34","2131","1232","3363","934","25","1115","410","1524","258","9","1017","822","1839","GN","9.945587","-9.696645","Guinea","POINT(9.945587 -9.696645)","POINT(9.945587 -9.696645)","Guinea","11628767","POINT(9.945587 -9.696645)","High Income"
"2012","Guinea","3381","1799","1582","258","208","50","949","476","474","1192","34","2131","1232","3363","934","25","1115","410","1524","258","9","1017","822","1839","GN","9.945587","-9.696645","Guinea","POINT(9.945587 -9.696645)","POINT(9.945587 -9.696645)","Guinea","11628767","POINT(9.945587 -9.696645)","Low Income"
"2012","Guinea-Bissau","437","241","196","29","22","7","186","84","102","29","4","328","292","619","20","3","172","153","325","10","1","156","138","295","GW","11.803749","-15.180413","Guinea-Bissau","POINT(11.803749 -15.180413)","POINT(11.803749 -15.180413)","Guinea-Bissau","1714620","POINT(11.803749 -15.180413)","Low Income"
"2012","Kenya","8863","4321","4542","1053","894","159","5232","2972","2259","5906","204","3856","5181","9037","4280","161","1998","1748","3747","1626","44","1858","3432","5291","KE","-0.023559","37.906193","Kenya","POINT(-0.023559 37.906193)","POINT(-0.023559 37.906193)","Kenya","42542978","POINT(-0.023559 37.906193)","Low Income"
"2012","Denmark","70","56","14","533","411","122","2094","951","1143","2451","96","144","7","151","1244","75","98","2","100","1207","21","46","5","51","DK","56.26392","9.501785","Denmark","POINT(56.26392 9.501785)","POINT(56.26392 9.501785)","Denmark","5591572","POINT(56.26392 9.501785)","High Income"
"2012","Morocco","4218","2642","1575","2303","1790","513","4228","3453","775","5900","362","1650","2837","4488","4858","336","1259","1432","2692","1042","26","391","1405","1796","MA","31.791702","-7.09262","Morocco","POINT(31.791702 -7.09262)","POINT(31.791702 -7.09262)","Morocco","32984190","POINT(31.791702 -7.09262)","Lower Middle Income"
"2012","Lesotho","422","266","156","61","34","26","151","55","96","171","5","370","88","458","92","3","235","27","261","79","3","135","61","197","LS","-29.609988","28.233608","Lesotho","POINT(-29.609988 28.233608)","POINT(-29.609988 28.233608)","Lesotho","2057331","POINT(-29.609988 28.233608)","Lower Middle Income"
"2012","Liberia","655","346","308","145","109","36","613","286","326","299","33","884","196","1080","230","18","419","75","494","69","15","466","120","586","LR","6.428055","-9.429499","Liberia","POINT(6.428055 -9.429499)","POINT(6.428055 -9.429499)","Liberia","4190155","POINT(6.428055 -9.429499)","Low Income"
"2012","Madagascar","8857","4617","4240","297","246","51","1764","714","1050","1032","187","3327","6372","9699","620","127","2525","2305","4830","412","60","802","4067","4869","MG","-18.766947","46.869107","Madagascar","POINT(-18.766947 46.869107)","POINT(-18.766947 46.869107)","Madagascar","22293720","POINT(-18.766947 46.869107)","Low Income"
"2012","France","791","549","242","5781","4486","1294","19851","8888","10964","23379","1154","1758","132","1890","11833","877","1169","43","1212","11545","276","589","89","678","FR","46.227638","2.213749","France","POINT(46.227638 2.213749)","POINT(46.227638 2.213749)","France","65659790","POINT(46.227638 2.213749)","High Income"
"2012","Malawi","4716","2128","2587","692","426","267","1249","735","514","745","46","3619","2247","5866","549","28","1791","922","2713","196","18","1828","1326","3154","MW","-13.254308","34.301525","Malawi","POINT(-13.254308 34.301525)","POINT(-13.254308 34.301525)","Malawi","15700436","POINT(-13.254308 34.301525)","Low Income"
"2012","Mali","3145","2050","1094","249","209","39","1364","730","634","494","61","2994","1208","4202","425","50","1933","582","2515","69","12","1062","625","1687","ML","17.570692","-3.996166","Mali","POINT(17.570692 -3.996166)","POINT(17.570692 -3.996166)","Mali","16112333","POINT(17.570692 -3.996166)","Low Income"
"2012","South Korea","1519","847","672","8002","6318","1684","14922","7096","7826","17057","1377","4843","1166","6009","9793","1080","3227","160","3387","7264","296","1616","1006","2622","KR","35.907757","127.766922","South Korea","POINT(35.907757 127.766922)","POINT(35.907757 127.766922)","South Korea","50004441","POINT(35.907757 127.766922)","High Income"
"2012","Mauritania","445","316","129","98","83","15","300","208","92","299","8","416","119","536","259","6","292","49","341","40","2","125","70","195","MR","21.00789","-10.940835","Mauritania","POINT(21.00789 -10.940835)","POINT(21.00789 -10.940835)","Mauritania","3777067","POINT(21.00789 -10.940835)","Lower Middle Income"
"2012","Albania","464","231","233","237","193","44","461","271","190","520","19","336","286","622","341","17","249","89","338","180","2","86","198","284","AL","41.153332","20.168331","Albania","POINT(41.153332 20.168331)","POINT(41.153332 20.168331)","Albania","2900247","POINT(41.153332 20.168331)","Upper Middle Income"
"2012","Mauritius","42","29","12","146","108","38","342","203","139","420","19","79","11","90","262","16","58","3","61","158","2","21","8","29","MU","-20.348404","57.552152","Mauritius","POINT(-20.348404 57.552152)","POINT(-20.348404 57.552152)","Mauritius","1255882","POINT(-20.348404 57.552152)","Upper Middle Income"
"2012","Sudan","5174","3624","1550","829","587","243","3912","2975","937","3314","763","3228","2610","5838","2875","742","2822","745","3567","439","21","406","1865","2270","SD","12.862807","30.217636","Sudan","POINT(12.862807 30.217636)","POINT(12.862807 30.217636)","Sudan","37712420","POINT(12.862807 30.217636)","Lower Middle Income"
"2012","Mozambique","8049","3119","4930","496","463","33","2091","1427","663","1024","422","5498","3692","9190","827","343","3187","652","3838","196","78","2311","3040","5351","MZ","-18.665695","35.529562","Mozambique","POINT(-18.665695 35.529562)","POINT(-18.665695 35.529562)","Mozambique","25732928","POINT(-18.665695 35.529562)","Low Income"
"2012","Kuwait","0","0","0","292","266","26","1313","954","359","1550","17","31","7","39","1174","14","28","5","33","376","3","3","2","5","KW","29.31166","47.481766","Kuwait","POINT(29.31166 47.481766)","POINT(29.31166 47.481766)","Kuwait","3419581","POINT(29.31166 47.481766)","High Income"
"2012","Namibia","192","103","88","97","79","18","410","185","225","441","29","187","42","229","255","18","75","18","94","185","10","111","24","135","","-22.95764","18.49041","Namibia","POINT(-22.95764 18.49041)","POINT(-22.95764 18.49041)","Namibia","2291645","POINT(-22.95764 18.49041)","Upper Middle Income"
"2012","Niger","3033","2395","638","562","282","280","1676","940","736","295","33","4767","177","4944","228","27","3234","128","3363","67","5","1533","48","1582","NE","17.607789","8.081666","Niger","POINT(17.607789 8.081666)","POINT(17.607789 8.081666)","Niger","17635782","POINT(17.607789 8.081666)","Low Income"
"2012","Nigeria","19650","12712","6938","5963","3550","2413","23084","11702","11381","8067","422","27443","12765","40208","6401","243","15553","5767","21320","1666","178","11891","6998","18888","NG","9.081999","8.675277","Nigeria","POINT(9.081999 8.675277)","POINT(9.081999 8.675277)","Nigeria","168240403","POINT(9.081999 8.675277)","Lower Middle Income"
"2012","Developed Economies and European Union","17167","11227","5940","106550","82642","23908","349495","164333","185163","408562","16995","42192","5463","47655","215873","12871","27739","1719","29458","192689","4124","14454","3744","18197","","","","Developed Economies and European Union","","","Developed Economies and European Union","","",""
"2012","Runion","12","7","4","39","28","11","217","113","104","68","3","143","53","196","45","3","80","21","101","23","1","63","33","95","","","","Runion","","","Runion","","",""
"2012","Australia","305","216","90","2371","1921","450","8888","4161","4727","10253","310","973","28","1001","5436","209","640","13","653","4816","101","333","15","349","AU","-25.274398","133.775136","Australia","POINT(-25.274398 133.775136)","POINT(-25.274398 133.775136)","Australia","22728254","POINT(-25.274398 133.775136)","High Income"
"2012","Rwanda","4130","1849","2281","281","198","83","1120","581","539","747","5","3860","919","4779","524","5","1702","397","2099","223","1","2158","522","2679","RW","-1.940278","29.873888","Rwanda","POINT(-1.940278 29.873888)","POINT(-1.940278 29.873888)","Rwanda","10817350","POINT(-1.940278 29.873888)","Low Income"
"2012","Germany","635","423","211","11479","8818","2661","28557","12700","15856","35950","1941","2559","219","2778","18798","1472","1603","68","1671","17152","469","956","151","1107","DE","51.165691","10.451526","Germany","POINT(51.165691 10.451526)","POINT(51.165691 10.451526)","Germany","80425823","POINT(51.165691 10.451526)","High Income"
"2012","Tunisia","484","375","109","1120","1015","105","1641","1015","625","2234","114","761","135","896","1575","99","659","72","731","659","15","103","63","165","TN","33.886917","9.537499","Tunisia","POINT(33.886917 9.537499)","POINT(33.886917 9.537499)","Tunisia","10881450","POINT(33.886917 9.537499)","Upper Middle Income"
"2012","Senegal","1912","1036","876","906","784","121","2522","1192","1330","1391","37","2985","926","3912","954","33","1553","473","2025","437","4","1433","454","1886","SN","14.497401","-14.452362","Senegal","POINT(14.497401 -14.452362)","POINT(14.497401 -14.452362)","Senegal","13780108","POINT(14.497401 -14.452362)","Lower Middle Income"
"2012","Belarus","418","264","153","1473","957","516","2296","890","1406","4070","40","72","5","77","2040","27","42","2","45","2030","13","30","2","32","BY","53.709807","27.953389","Belarus","POINT(53.709807 27.953389)","POINT(53.709807 27.953389)","Belarus","9464495","POINT(53.709807 27.953389)","Upper Middle Income"
"2012","Sierra Leone","1386","653","734","163","149","14","715","331","384","221","17","1701","325","2027","163","9","843","119","962","59","8","859","206","1065","SL","8.460555","-11.779889","Sierra Leone","POINT(8.460555 -11.779889)","POINT(8.460555 -11.779889)","Sierra Leone","6043157","POINT(8.460555 -11.779889)","Low Income"
"2012","Lebanon","97","78","20","343","316","27","1173","858","315","983","85","498","48","546","694","81","446","31","477","288","4","52","18","69","LB","33.854721","35.862285","Lebanon","POINT(33.854721 35.862285)","POINT(33.854721 35.862285)","Lebanon","4924257","POINT(33.854721 35.862285)","Upper Middle Income"
"2012","Somalia","2075","1403","673","111","93","18","568","337","231","97","15","1461","1181","2642","75","12","962","785","1747","22","4","499","396","895","SO","5.152149","46.199616","Somalia","POINT(5.152149 46.199616)","POINT(5.152149 46.199616)","Somalia","10033630","POINT(5.152149 46.199616)","Low Income"
"2012","South Africa","679","445","233","3686","2748","938","9967","4993","4973","12088","799","1331","113","1444","6813","625","707","41","748","5275","174","624","72","696","ZA","-30.559482","22.937506","South Africa","POINT(-30.559482 22.937506)","POINT(-30.559482 22.937506)","South Africa","52506515.08","POINT(-30.559482 22.937506)","Upper Middle Income"
"2012","Swaziland","113","54","59","104","69","35","120","86","34","264","5","65","2","67","177","3","29","1","30","88","2","36","1","38","SZ","-26.522503","31.465866","Swaziland","POINT(-26.522503 31.465866)","POINT(-26.522503 31.465866)","Swaziland","1231694","POINT(-26.522503 31.465866)",""
"2012","Tanzania","16507","7904","8604","1231","933","298","4944","2685","2259","2459","491","16956","2777","19733","1671","341","8342","1166","9509","788","150","8614","1610","10224","TZ","-6.369028","34.888822","Tanzania","POINT(-6.369028 34.888822)","POINT(-6.369028 34.888822)","Tanzania","48645709","POINT(-6.369028 34.888822)","Low Income"
"2012","North Korea","1667","1036","631","7886","3183","4704","4821","3219","1602","8094","244","4356","1680","6036","4073","180","2884","301","3184","4021","64","1472","1380","2852","KP","40.339852","127.510093","North Korea","POINT(40.339852 127.510093)","POINT(40.339852 127.510093)","North Korea","","POINT(40.339852 127.510093)",""
"2012","Chad","3255","1710","1546","152","128","24","786","481","305","417","14","3013","749","3762","382","8","1818","111","1930","36","6","1195","638","1833","TD","15.454166","18.732207","Chad","POINT(15.454166 18.732207)","POINT(15.454166 18.732207)","Chad","12715465","POINT(15.454166 18.732207)","Low Income"
"2012","Sub-Saharan Africa","195922","104197","91725","28393","18872","9521","96217","49906","46311","67223","4694","164528","84087","248615","47291","3313","91673","30698","122371","19932","1381","72855","53389","126244","","","","Sub-Saharan Africa","","","Sub-Saharan Africa","923005243.1","",""
"2012","Togo","1538","857","680","191","131","60","1130","415","715","367","31","1873","588","2461","264","21","874","245","1118","104","9","999","343","1342","TG","8.619543","0.824782","Togo","POINT(8.619543 0.824782)","POINT(8.619543 0.824782)","Togo","6745581","POINT(8.619543 0.824782)","Low Income"
"2012","Uganda","8596","3901","4695","1019","676","343","4288","2567","1721","2580","53","8366","2904","11270","1921","33","4670","519","5189","659","20","3696","2384","6080","UG","1.373333","32.290275","Uganda","POINT(1.373333 32.290275)","POINT(1.373333 32.290275)","Uganda","35400620","POINT(1.373333 32.290275)","Low Income"
"2012","Zambia","3694","1768","1926","506","384","122","972","579","394","1136","25","2903","1108","4010","845","9","1583","294","1877","291","16","1320","814","2134","ZM","-13.133897","27.849332","Zambia","POINT(-13.133897 27.849332)","POINT(-13.133897 27.849332)","Zambia","14786581","POINT(-13.133897 27.849332)","Lower Middle Income"
"2012","Greece","499","300","199","640","524","116","2691","1463","1228","2420","273","948","189","1137","1362","208","648","69","717","1058","65","300","121","420","GR","39.074208","21.824312","Greece","POINT(39.074208 21.824312)","POINT(39.074208 21.824312)","Greece","11045011","POINT(39.074208 21.824312)","High Income"
"2012","Bosnia and Herzegovina","215","126","89","315","250","65","514","277","237","750","11","235","49","283","470","8","162","14","176","280","3","72","35","107","BA","43.915886","17.679076","Bosnia and Herzegovina","POINT(43.915886 17.679076)","POINT(43.915886 17.679076)","Bosnia and Herzegovina","3828419","POINT(43.915886 17.679076)","Upper Middle Income"
"2012","Oman","66","65","1","615","604","11","786","587","198","1383","16","45","22","67","1199","15","31","11","43","184","1","13","11","25","OM","21.512583","55.923255","Oman","POINT(21.512583 55.923255)","POINT(21.512583 55.923255)","Oman","3545192","POINT(21.512583 55.923255)","High Income"
"2012","Zimbabwe","4429","2053","2376","613","519","93","1658","823","836","2683","19","3081","917","3999","1990","16","1050","340","1389","693","3","2032","578","2609","ZW","-19.015438","29.154857","Zimbabwe","POINT(-19.015438 29.154857)","POINT(-19.015438 29.154857)","Zimbabwe","14565482","POINT(-19.015438 29.154857)","Low Income"
"2012","Hungary","206","153","53","1173","826","348","2556","1145","1411","3473","205","239","18","257","1821","149","147","7","153","1652","56","93","11","104","HU","47.162494","19.503304","Hungary","POINT(47.162494 19.503304)","POINT(47.162494 19.503304)","Hungary","9920362","POINT(47.162494 19.503304)","Upper Middle Income"
"2012","Iceland","10","8","2","33","26","6","137","59","77","156","7","14","2","16","79","5","9","1","10","78","2","5","1","6","IS","64.963051","-19.020835","Iceland","POINT(64.963051 -19.020835)","POINT(64.963051 -19.020835)","Iceland","320716","POINT(64.963051 -19.020835)","High Income"
"2012","Macau, China","2","1","1","58","43","15","282","132","150","318","10","13","1","15","158","8","10","0","10","159","2","4","1","5","","","","Macau, China","","","Macau, China","","",""
"2012","Turkmenistan","690","373","317","457","378","79","866","472","394","1507","21","414","70","484","921","17","256","28","284","586","4","157","42","200","TM","38.969719","59.556278","Turkmenistan","POINT(38.969719 59.556278)","POINT(38.969719 59.556278)","Turkmenistan","5172941","POINT(38.969719 59.556278)","Upper Middle Income"
"2012","Ireland","87","76","11","339","263","76","1417","647","769","1538","87","204","14","217","747","67","166","7","173","791","20","38","7","45","IE","53.41291","-8.24389","Ireland","POINT(53.41291 -8.24389)","POINT(53.41291 -8.24389)","Ireland","4586897","POINT(53.41291 -8.24389)","High Income"
"2012","Italy","858","610","248","6379","5067","1312","15678","7803","7875","17215","1506","3854","339","4194","9501","1147","2683","150","2832","7714","360","1172","190","1361","IT","41.87194","12.56738","Italy","POINT(41.87194 12.56738)","POINT(41.87194 12.56738)","Italy","59539717","POINT(41.87194 12.56738)","High Income"
"2012","Latvia","76","53","23","213","148","64","613","243","370","798","35","59","9","68","383","24","33","5","38","415","12","26","4","30","LV","56.879635","24.603189","Latvia","POINT(56.879635 24.603189)","POINT(56.879635 24.603189)","Latvia","2034319","POINT(56.879635 24.603189)","High Income"
"2012","Lithuania","121","76","45","337","224","112","893","354","539","1199","30","102","19","121","567","21","59","8","67","633","9","43","11","54","LT","55.169438","23.881275","Lithuania","POINT(55.169438 23.881275)","POINT(55.169438 23.881275)","Lithuania","2987773","POINT(55.169438 23.881275)","High Income"
"2012","Luxembourg","3","2","1","30","26","4","204","104","99","216","8","13","1","14","120","6","7","0","7","96","2","6","1","7","LU","49.815273","6.129583","Luxembourg","POINT(49.815273 6.129583)","POINT(49.815273 6.129583)","Luxembourg","530946","POINT(49.815273 6.129583)","High Income"
"2012","Malta","2","2","0","39","32","7","136","79","57","151","8","16","4","19","92","6","13","3","15","59","1","3","1","4","MT","35.937496","14.375416","Malta","POINT(35.937496 14.375416)","POINT(35.937496 14.375416)","Malta","419455","POINT(35.937496 14.375416)","High Income"
"2012","Canada","378","274","104","3436","2701","734","14118","6470","7649","14742","615","2558","17","2575","7420","380","1635","9","1644","7322","235","922","8","930","CA","56.130366","-106.346771","Canada","POINT(56.130366 -106.346771)","POINT(56.130366 -106.346771)","Canada","34750545","POINT(56.130366 -106.346771)","High Income"
"2012","Qatar","21","21","0","805","798","7","708","542","166","1515","12","7","0","7","1342","12","7","0","7","173","0","0","0","0","QA","25.354826","51.183884","Qatar","POINT(25.354826 51.183884)","POINT(25.354826 51.183884)","Qatar","2015624","POINT(25.354826 51.183884)","High Income"
"2012","Macedonia","115","69","46","199","134","64","351","199","152","486","32","90","57","147","285","24","73","20","93","201","8","17","37","53","","","","Macedonia","","","Macedonia","2069270","","Upper Middle Income"
"2012","Netherlands","217","158","59","1428","1182","246","6839","3232","3607","7178","326","930","50","980","3725","247","585","14","600","3453","79","345","36","380","NL","52.132633","5.291266","Netherlands","POINT(52.132633 5.291266)","POINT(52.132633 5.291266)","Netherlands","16754962","POINT(52.132633 5.291266)","High Income"
"2012","Angola","2591","1502","1089","746","560","185","3645","1719","1926","2649","60","2953","1319","4272","2112","29","1298","342","1640","537","31","1655","977","2632","AO","-11.202692","17.873887","Angola","POINT(-11.202692 17.873887)","POINT(-11.202692 17.873887)","Angola","22685632","POINT(-11.202692 17.873887)","Upper Middle Income"
"2012","Mongolia","391","210","181","224","155","68","591","289","302","574","15","263","354","617","288","11","164","191","355","285","4","99","163","262","MN","46.862496","103.846656","Mongolia","POINT(46.862496 103.846656)","POINT(46.862496 103.846656)","Mongolia","2808339","POINT(46.862496 103.846656)",""
"2012","Norway","58","48","10","521","429","92","1996","878","1118","2394","46","129","5","134","1225","34","92","3","95","1169","12","37","3","39","NO","60.472024","8.468946","Norway","POINT(60.472024 8.468946)","POINT(60.472024 8.468946)","Norway","5018573","POINT(60.472024 8.468946)","High Income"
"2012","Poland","2083","1215","868","5023","3831","1192","9412","4070","5342","12808","690","2430","590","3020","6835","475","1586","220","1806","5973","215","843","370","1214","PL","51.919438","19.145136","Poland","POINT(51.919438 19.145136)","POINT(51.919438 19.145136)","Poland","38063164","POINT(51.919438 19.145136)","High Income"
"2012","Portugal","489","297","192","1193","860","332","2968","1294","1674","3638","235","745","33","778","1824","162","451","15","466","1813","73","295","18","313","PT","39.399872","-8.224454","Portugal","POINT(39.399872 -8.224454)","POINT(39.399872 -8.224454)","Portugal","10514844","POINT(39.399872 -8.224454)","High Income"
"2012","Romania","2805","1498","1307","2767","1881","886","4105","1956","2149","6505","121","1831","1221","3051","3579","86","1296","374","1670","2926","35","534","847","1381","RO","45.943161","24.96676","Romania","POINT(45.943161 24.96676)","POINT(45.943161 24.96676)","Romania","20058035","POINT(45.943161 24.96676)","Upper Middle Income"
"2012","Slovakia","78","60","18","889","670","219","1404","594","810","2004","72","292","3","295","1062","52","209","1","210","942","20","83","2","85","SK","48.669026","19.699024","Slovakia","POINT(48.669026 19.699024)","POINT(48.669026 19.699024)","Slovakia","","POINT(48.669026 19.699024)",""
"2012","Slovenia","79","45","34","291","213","78","567","252","314","784","32","83","38","120","412","24","58","16","74","372","8","24","22","46","SI","46.151241","14.995463","Slovenia","POINT(46.151241 14.995463)","POINT(46.151241 14.995463)","Slovenia","2057159","POINT(46.151241 14.995463)","High Income"
"2012","Switzerland","162","100","62","934","732","202","3351","1579","1772","3767","275","314","92","405","1998","208","169","36","205","1769","67","145","55","200","CH","46.818188","8.227512","Switzerland","POINT(46.818188 8.227512)","POINT(46.818188 8.227512)","Switzerland","7996861","POINT(46.818188 8.227512)","High Income"
"2012","Moldova","293","164","129","214","143","71","600","246","355","784","6","291","26","317","368","3","174","8","181","416","3","117","18","135","MD","47.411631","28.369885","Moldova","POINT(47.411631 28.369885)","POINT(47.411631 28.369885)","Moldova","3559519","POINT(47.411631 28.369885)","Lower Middle Income"
"2012","Taiwan","545","378","166","4055","2547","1508","6452","3360","3092","8800","453","1327","471","1798","4788","381","991","125","1116","4011","73","337","345","682","TW","23.69781","120.960515","Taiwan","POINT(23.69781 120.960515)","POINT(23.69781 120.960515)","Taiwan","","POINT(23.69781 120.960515)",""
